{"data":[{"turbidity":"13.80000","city":"常州市","nh3n":"0.10140","total_nitrogen":"2.08600","total_phosphorus":"0.07230","do":"9.51100","quality":"Ⅱ","conductivity":"295.60000","province":"江苏省","time_point":"2024-03-04 08:00:00","river_system":"太湖流域","temperature":"10.9700","ph":"7.92000","name":"东潘桥（搬迁）","id":6215,"river":"德胜河","codmn":"1.53200","status":""},{"turbidity":"19.77200","city":"苏州市","nh3n":"0.19000","total_nitrogen":"2.90540","latitude":"32.061707","total_phosphorus":"0.07250","do":"10.28700","quality":"Ⅱ","conductivity":"516.15400","province":"江苏省","time_point":"2024-02-29 20:00:00","river_system":"太湖流域","temperature":"6.9900","ph":"7.50800","name":"千灯浦口","id":3128,"river":"千灯浦","codmn":"3.82740","info":"UNKNOWN","status":"","longitude":"118.763232"},{"turbidity":"220.38300","city":"苏州市","latitude":"31.620979","chlorophyll":"0.00094","do":"12.60700","quality":"UNKNOWN","conductivity":"467.67900","province":"江苏省","time_point":"2024-02-29 20:00:00","river_system":"太湖流域","temperature":"5.1600","ph":"8.20300","name":"乌龟山南","algal_density":"110357000","id":2123,"river":"太湖","info":"UNKNOWN","status":"","longitude":"119.021234"},{"turbidity":"211.95800","city":"苏州市","nh3n":"0.02500","total_nitrogen":"1.69800","latitude":"32.032782","chlorophyll":"0.00494","total_phosphorus":"0.14200","do":"12.26200","quality":"Ⅴ","conductivity":"475.98300","province":"江苏省","time_point":"2024-02-29 20:00:00","river_system":"太湖流域","temperature":"6.2000","ph":"8.17900","name":"胥湖心","algal_density":"29601600","id":3171,"river":"太湖","codmn":"5.55500","info":"UNKNOWN","status":"","longitude":"118.752935"},{"turbidity":"19.50400","city":"苏州市","nh3n":"0.04150","total_nitrogen":"2.26500","latitude":"31.460995","chlorophyll":"0.00180","total_phosphorus":"0.04060","do":"12.39200","quality":"Ⅲ","conductivity":"434.37000","province":"江苏省","time_point":"2024-02-29 20:00:00","river_system":"太湖流域","temperature":"6.3300","ph":"8.04100","name":"阳澄湖心","algal_density":"11298000","id":3187,"river":"阳澄湖","codmn":"2.70400","info":"UNKNOWN","status":"","longitude":"120.869564"},{"turbidity":"36.72000","city":"无锡市","nh3n":"0.88100","total_nitrogen":"4.81440","latitude":"32.687943","total_phosphorus":"0.13520","do":"9.21200","quality":"Ⅲ","conductivity":"546.43900","province":"江苏省","time_point":"2024-02-29 20:00:00","river_system":"太湖流域","temperature":"5.5700","ph":"7.65900","name":"百渎港桥","id":3946,"river":"百渎港","codmn":"4.25690","info":"UNKNOWN","status":"","longitude":"120.254645"},{"turbidity":"73.66000","city":"无锡市","nh3n":"0.05970","total_nitrogen":"1.17200","latitude":"31.211617","chlorophyll":"0.00261","total_phosphorus":"0.05370","do":"12.58100","quality":"Ⅳ","conductivity":"390.52700","province":"江苏省","time_point":"2024-02-29 20:00:00","river_system":"太湖流域","temperature":"5.2800","ph":"7.88800","name":"兰山嘴","algal_density":"13886710","id":3124,"river":"太湖","codmn":"2.65900","info":"UNKNOWN","status":"","longitude":"119.89146"},{"turbidity":"98.59000","city":"无锡市","nh3n":"0.02500","total_nitrogen":"2.01000","latitude":"31.405592","chlorophyll":"0.01717","total_phosphorus":"0.04900","do":"10.58700","quality":"Ⅲ","conductivity":"458.96000","province":"江苏省","time_point":"2024-02-29 20:00:00","river_system":"太湖流域","temperature":"5.5300","ph":"8.34700","name":"拖山","algal_density":"18415330","id":3143,"river":"太湖","codmn":"2.69000","info":"UNKNOWN","status":"","longitude":"120.135477"},{"turbidity":"16.64900","city":"无锡市","nh3n":"0.02500","total_nitrogen":"1.05400","latitude":"33.597258","chlorophyll":"0.00920","total_phosphorus":"0.03700","do":"11.00500","quality":"Ⅲ","conductivity":"415.21500","province":"江苏省","time_point":"2024-02-29 20:00:00","river_system":"太湖流域","temperature":"6.0600","ph":"7.56200","name":"五里湖心","algal_density":"4680850","id":3123,"river":"太湖","codmn":"2.81300","info":"UNKNOWN","status":"","longitude":"118.897236"},{"turbidity":"14.41000","city":"湖州市","nh3n":"0.42310","total_nitrogen":"4.57300","latitude":"29.506424","total_phosphorus":"0.05160","do":"7.97700","quality":"Ⅱ","conductivity":"275.59000","province":"浙江省","time_point":"2024-02-29 20:00:00","river_system":"太湖流域","temperature":"7.9600","ph":"7.10000","name":"城西大桥","id":2476,"river":"东苕溪","codmn":"1.57900","info":"UNKNOWN","status":"","longitude":"120.897324"},{"turbidity":"23.62000","city":"湖州市","nh3n":"0.29390","total_nitrogen":"4.08500","latitude":"30.82326","total_phosphorus":"0.05480","do":"9.07900","quality":"Ⅱ","conductivity":"200.69000","province":"浙江省","time_point":"2024-02-29 20:00:00","river_system":"太湖流域","temperature":"8.6600","ph":"7.29000","name":"荆湾","id":2502,"river":"西苕溪","codmn":"1.56800","info":"UNKNOWN","status":"","longitude":"119.780421"},{"turbidity":"29.99000","city":"湖州市","nh3n":"0.58630","total_nitrogen":"5.17400","latitude":"30.8909035","chlorophyll":"0.00084","total_phosphorus":"0.06900","do":"9.16000","quality":"Ⅲ","conductivity":"250.11000","province":"浙江省","time_point":"2024-02-29 20:00:00","river_system":"太湖流域","temperature":"8.1800","ph":"7.43000","name":"新港口(新塘港)","id":2485,"river":"西苕溪","codmn":"2.45200","info":"浙-苏省界","status":"","longitude":"120.1005112"},{"turbidity":"36.75000","city":"湖州市","nh3n":"0.33680","total_nitrogen":"4.93500","latitude":"30.963576","total_phosphorus":"0.06410","do":"7.68400","quality":"Ⅱ","conductivity":"254.35000","province":"浙江省","time_point":"2024-02-29 20:00:00","river_system":"太湖流域","temperature":"8.1000","ph":"7.38000","name":"小梅口","id":2482,"river":"小梅港","codmn":"2.68400","info":"UNKNOWN","status":"","longitude":"120.101914"},{"turbidity":"62.08986","city":"湖州市","nh3n":"0.21200","total_nitrogen":"5.24319","latitude":"28.439517","total_phosphorus":"0.04500","do":"9.16525","quality":"Ⅱ","conductivity":"323.25870","province":"浙江省","time_point":"2024-02-29 20:00:00","river_system":"太湖流域","temperature":"8.1656","ph":"7.63045","name":"杨家浦","id":2486,"river":"杨家浦港","codmn":"3.80000","info":"UNKNOWN","status":"","longitude":"121.543023"},{"turbidity":"10.91278","city":"宣城市","nh3n":"0.63478","total_nitrogen":"4.24672","latitude":"31.618256","total_phosphorus":"0.09283","do":"9.22107","quality":"Ⅲ","conductivity":"332.72710","province":"安徽省","time_point":"2024-02-29 16:00:00","river_system":"太湖流域","temperature":"8.0026","ph":"7.70111","name":"殷桥","id":2900,"river":"梅溧河","codmn":"5.93008","info":"UNKNOWN","status":"","longitude":"117.2443"},{"turbidity":"65.85000","city":"常州市","nh3n":"0.25670","total_nitrogen":"2.44600","latitude":"31.830233","total_phosphorus":"0.12700","do":"8.69900","quality":"Ⅲ","conductivity":"400.60000","province":"江苏省","time_point":"2024-02-29 16:00:00","river_system":"太湖流域","temperature":"8.5100","ph":"7.37000","name":"黄埝桥","id":3192,"river":"丹金溧漕河","codmn":"3.09600","info":"UNKNOWN","status":"","longitude":"119.607156"},{"turbidity":"23.79000","city":"常州市","nh3n":"0.24590","total_nitrogen":"5.58200","latitude":"31.306263","total_phosphorus":"0.12700","do":"8.98000","quality":"Ⅲ","conductivity":"523.03000","province":"江苏省","time_point":"2024-02-29 16:00:00","river_system":"太湖流域","temperature":"8.1200","ph":"7.63000","name":"姚巷桥","id":3138,"river":"武进港","codmn":"3.01600","info":"UNKNOWN","status":"","longitude":"119.239627"},{"turbidity":"42.80000","city":"常州市","nh3n":"0.59480","total_nitrogen":"4.84000","latitude":"31.346315","total_phosphorus":"0.08540","do":"8.28100","quality":"Ⅲ","conductivity":"378.20000","province":"江苏省","time_point":"2024-02-29 16:00:00","river_system":"太湖流域","temperature":"6.8400","ph":"7.27000","name":"落蓬湾","id":3176,"river":"胥河","codmn":"5.57900","info":"UNKNOWN","status":"","longitude":"119.223289"},{"turbidity":"19.00000","city":"常州市","nh3n":"0.20310","total_nitrogen":"2.16900","total_phosphorus":"0.06770","do":"9.22700","quality":"Ⅱ","conductivity":"434.70000","province":"江苏省","time_point":"2024-02-29 16:00:00","river_system":"太湖流域","temperature":"7.4000","ph":"7.91000","name":"九号桥","id":6328,"river":"澡港河","codmn":"2.15700","status":""},{"turbidity":"18.37000","city":"苏州市","nh3n":"0.46700","total_nitrogen":"3.68600","latitude":"31.452117","total_phosphorus":"0.09620","do":"10.40000","quality":"Ⅱ","conductivity":"563.31000","province":"江苏省","time_point":"2024-02-29 16:00:00","river_system":"太湖流域","temperature":"8.1800","ph":"7.85000","name":"望亭上游","id":3148,"river":"京杭运河","codmn":"2.40300","info":"UNKNOWN","status":"","longitude":"120.427174"},{"turbidity":"34.33400","city":"苏州市","nh3n":"1.11570","total_nitrogen":"3.34550","latitude":"31.515118","total_phosphorus":"0.24750","do":"7.42400","quality":"Ⅳ","conductivity":"626.77100","province":"江苏省","time_point":"2024-02-29 16:00:00","river_system":"太湖流域","temperature":"8.8300","ph":"7.78500","name":"浏河闸","id":3158,"river":"浏河","codmn":"4.86820","info":"UNKNOWN","status":"","longitude":"121.276419"},{"turbidity":"18.44300","city":"苏州市","nh3n":"0.16620","total_nitrogen":"2.85310","latitude":"32.061707","total_phosphorus":"0.07030","do":"10.34100","quality":"Ⅲ","conductivity":"513.70200","province":"江苏省","time_point":"2024-02-29 16:00:00","river_system":"太湖流域","temperature":"7.0300","ph":"7.53800","name":"千灯浦口","id":3128,"river":"千灯浦","codmn":"4.08740","info":"UNKNOWN","status":"","longitude":"118.763232"},{"turbidity":"14.60000","city":"苏州市","nh3n":"0.50390","total_nitrogen":"1.70400","latitude":"31.388542","total_phosphorus":"0.06910","do":"6.87300","quality":"Ⅲ","conductivity":"385.40000","province":"江苏省","time_point":"2024-02-29 16:00:00","river_system":"太湖流域","temperature":"5.6300","ph":"8.27000","name":"越溪桥","id":3180,"river":"苏东河","codmn":"3.17200","info":"UNKNOWN","status":"","longitude":"120.973408"},{"turbidity":"213.67700","city":"苏州市","nh3n":"0.02500","total_nitrogen":"1.72100","latitude":"32.032782","chlorophyll":"0.00416","total_phosphorus":"0.14470","do":"12.23100","quality":"Ⅴ","conductivity":"477.01800","province":"江苏省","time_point":"2024-02-29 16:00:00","river_system":"太湖流域","temperature":"6.2400","ph":"8.18200","name":"胥湖心","algal_density":"23418100","id":3171,"river":"太湖","codmn":"5.96000","info":"UNKNOWN","status":"","longitude":"118.752935"},{"turbidity":"32.77000","city":"苏州市","nh3n":"0.03380","total_nitrogen":"1.42300","latitude":"31.342268","total_phosphorus":"0.02800","do":"12.38000","quality":"Ⅱ","conductivity":"395.46000","province":"江苏省","time_point":"2024-02-29 16:00:00","river_system":"太湖流域","temperature":"6.7600","ph":"7.99000","name":"312国道桥","id":3113,"river":"望虞河","codmn":"1.95800","info":"UNKNOWN","status":"","longitude":"120.640035"},{"turbidity":"32.30000","city":"苏州市","nh3n":"0.52170","total_nitrogen":"3.63500","latitude":"31.768555","total_phosphorus":"0.11220","do":"8.22800","quality":"Ⅲ","conductivity":"507.70000","province":"江苏省","time_point":"2024-02-29 16:00:00","river_system":"太湖流域","temperature":"11.2500","ph":"7.19000","name":"江边闸","id":3153,"river":"望虞河","codmn":"2.59400","info":"UNKNOWN","status":"","longitude":"120.810987"},{"turbidity":"20.93400","city":"苏州市","nh3n":"0.02500","total_nitrogen":"1.00400","latitude":"31.191479","total_phosphorus":"0.01400","do":"10.25800","quality":"Ⅱ","conductivity":"438.34800","province":"江苏省","time_point":"2024-02-29 16:00:00","river_system":"太湖流域","temperature":"7.5220","ph":"7.55000","name":"瓜泾口西","id":3164,"river":"吴淞江","codmn":"2.09900","info":"UNKNOWN","status":"","longitude":"120.661595"},{"turbidity":"107.80200","city":"苏州市","nh3n":"0.81320","total_nitrogen":"1.64670","latitude":"31.433021","total_phosphorus":"0.36040","do":"8.96700","quality":"Ⅴ","conductivity":"721.31500","province":"江苏省","time_point":"2024-02-29 16:00:00","river_system":"太湖流域","temperature":"8.5400","ph":"7.31000","name":"赵屯(石浦大桥)","id":3179,"river":"吴淞江","codmn":"3.89080","info":"UNKNOWN","status":"","longitude":"120.875192"},{"turbidity":"135.26000","city":"苏州市","nh3n":"0.04690","total_nitrogen":"1.02500","latitude":"30.831855","total_phosphorus":"0.02150","do":"11.40800","quality":"Ⅱ","conductivity":"485.66000","province":"江苏省","time_point":"2024-02-29 16:00:00","river_system":"太湖流域","temperature":"6.1300","ph":"7.85000","name":"航管站","id":3172,"river":"胥江","codmn":"3.20500","info":"UNKNOWN","status":"","longitude":"120.558677"},{"turbidity":"14.46300","city":"苏州市","nh3n":"0.04240","total_nitrogen":"2.37600","latitude":"31.460995","chlorophyll":"0.00166","total_phosphorus":"0.04150","do":"12.46800","quality":"Ⅲ","conductivity":"439.27000","province":"江苏省","time_point":"2024-02-29 16:00:00","river_system":"太湖流域","temperature":"6.3200","ph":"8.06200","name":"阳澄湖心","algal_density":"12577100","id":3187,"river":"阳澄湖","codmn":"2.72300","info":"UNKNOWN","status":"","longitude":"120.869564"},{"turbidity":"35.73600","city":"苏州市","nh3n":"0.23390","total_nitrogen":"2.55000","latitude":"32.570502","total_phosphorus":"0.05630","do":"9.92600","quality":"Ⅱ","conductivity":"573.70800","province":"江苏省","time_point":"2024-02-29 16:00:00","river_system":"太湖流域","temperature":"7.1100","ph":"7.91300","name":"朱厍港口","id":3149,"river":"朱厍港","codmn":"2.50870","info":"UNKNOWN","status":"","longitude":"119.949664"},{"turbidity":"19.29000","city":"无锡市","nh3n":"0.17420","total_nitrogen":"2.30300","latitude":"31.910246","total_phosphorus":"0.07000","do":"10.63000","quality":"Ⅱ","conductivity":"370.00000","province":"江苏省","time_point":"2024-02-29 16:00:00","river_system":"太湖流域","temperature":"9.8000","ph":"7.93000","name":"金潼桥","id":3182,"river":"白屈港","codmn":"2.41900","info":"UNKNOWN","status":"","longitude":"120.32641"},{"turbidity":"36.41900","city":"无锡市","nh3n":"0.84820","total_nitrogen":"4.71670","latitude":"32.687943","total_phosphorus":"0.13750","do":"9.25100","quality":"Ⅲ","conductivity":"534.64600","province":"江苏省","time_point":"2024-02-29 16:00:00","river_system":"太湖流域","temperature":"5.6700","ph":"7.68500","name":"百渎港桥","id":3946,"river":"百渎港","codmn":"4.26310","info":"UNKNOWN","status":"","longitude":"120.254645"},{"turbidity":"11.04000","city":"无锡市","nh3n":"0.06600","total_nitrogen":"3.97100","latitude":"32.090435","total_phosphorus":"0.02400","do":"9.49900","quality":"Ⅱ","conductivity":"138.13600","province":"江苏省","time_point":"2024-02-29 16:00:00","river_system":"太湖流域","temperature":"9.1690","ph":"6.97000","name":"大港桥","id":3137,"river":"大港河","codmn":"1.26500","info":"UNKNOWN","status":"","longitude":"120.288398"},{"turbidity":"46.38600","city":"无锡市","nh3n":"0.60600","total_nitrogen":"4.98500","latitude":"31.635595","total_phosphorus":"0.08600","do":"9.66900","quality":"Ⅲ","conductivity":"523.50000","province":"江苏省","time_point":"2024-02-29 16:00:00","river_system":"太湖流域","temperature":"6.6790","ph":"7.50000","name":"大浦港桥","id":3136,"river":"大浦港","codmn":"4.61000","info":"UNKNOWN","status":"","longitude":"119.506363"},{"turbidity":"18.88000","city":"无锡市","nh3n":"0.84900","total_nitrogen":"4.47300","latitude":"31.678267","total_phosphorus":"0.15300","do":"10.09000","quality":"Ⅲ","conductivity":"483.05000","province":"江苏省","time_point":"2024-02-29 16:00:00","river_system":"太湖流域","temperature":"7.9300","ph":"7.65000","name":"五牧","id":3122,"river":"京杭运河","codmn":"3.20500","info":"UNKNOWN","status":"","longitude":"120.154207"},{"turbidity":"25.59000","city":"无锡市","nh3n":"0.12000","latitude":"31.554449","total_phosphorus":"0.04460","do":"11.15000","quality":"Ⅱ","conductivity":"392.01000","province":"江苏省","time_point":"2024-02-29 16:00:00","river_system":"太湖流域","temperature":"6.6200","ph":"7.79000","name":"蠡桥","id":3178,"river":"梁溪河","codmn":"2.79700","info":"UNKNOWN","status":"","longitude":"120.284393"},{"turbidity":"67.66000","city":"无锡市","nh3n":"0.78000","total_nitrogen":"6.45700","latitude":"31.925323","total_phosphorus":"0.09400","do":"10.09500","quality":"Ⅲ","conductivity":"525.93900","province":"江苏省","time_point":"2024-02-29 16:00:00","river_system":"太湖流域","temperature":"6.8870","ph":"7.61000","name":"潘家坝","id":3162,"river":"南溪河","codmn":"5.22300","info":"UNKNOWN","status":"","longitude":"118.532748"},{"turbidity":"65.36000","city":"无锡市","nh3n":"0.50000","total_nitrogen":"4.57800","latitude":"31.503261","total_phosphorus":"0.11900","do":"9.60000","quality":"Ⅲ","conductivity":"524.60000","province":"江苏省","time_point":"2024-02-29 16:00:00","river_system":"太湖流域","temperature":"8.2200","ph":"7.57000","name":"殷村港桥","id":2406,"river":"太滆南运河","codmn":"4.12000","info":"UNKNOWN","status":"","longitude":"119.838119"},{"turbidity":"71.25000","city":"无锡市","nh3n":"0.30410","total_nitrogen":"3.58100","latitude":"31.211617","chlorophyll":"0.00348","total_phosphorus":"0.06640","do":"12.57000","quality":"Ⅳ","conductivity":"391.72100","province":"江苏省","time_point":"2024-02-29 16:00:00","river_system":"太湖流域","temperature":"5.3600","ph":"7.87100","name":"兰山嘴","algal_density":"14157230","id":3124,"river":"太湖","codmn":"3.33500","info":"UNKNOWN","status":"","longitude":"119.89146"},{"turbidity":"67.44000","city":"无锡市","nh3n":"0.02500","total_nitrogen":"2.07000","latitude":"31.405592","chlorophyll":"0.01767","total_phosphorus":"0.04600","do":"10.65700","quality":"Ⅲ","conductivity":"446.17000","province":"江苏省","time_point":"2024-02-29 16:00:00","river_system":"太湖流域","temperature":"5.5800","ph":"8.34100","name":"拖山","algal_density":"16241050","id":3143,"river":"太湖","codmn":"2.71000","info":"UNKNOWN","status":"","longitude":"120.135477"},{"turbidity":"19.55800","city":"无锡市","nh3n":"0.02500","total_nitrogen":"1.10400","latitude":"33.597258","chlorophyll":"0.00613","total_phosphorus":"0.03540","do":"11.22700","quality":"Ⅲ","conductivity":"412.90100","province":"江苏省","time_point":"2024-02-29 16:00:00","river_system":"太湖流域","temperature":"5.9800","ph":"7.55400","name":"五里湖心","algal_density":"4397160","id":3123,"river":"太湖","codmn":"2.67000","info":"UNKNOWN","status":"","longitude":"118.897236"},{"turbidity":"38.70400","city":"无锡市","nh3n":"0.02500","total_nitrogen":"1.37000","latitude":"31.671141","chlorophyll":"0.01849","total_phosphorus":"0.02500","do":"12.72500","quality":"Ⅱ","conductivity":"402.80000","province":"江苏省","time_point":"2024-02-29 16:00:00","river_system":"太湖流域","temperature":"6.5990","ph":"8.47000","name":"锡东水厂","algal_density":"2823680","id":3185,"river":"太湖","codmn":"2.23000","info":"UNKNOWN","status":"","longitude":"120.474809"},{"turbidity":"40.16000","city":"无锡市","nh3n":"0.19870","total_nitrogen":"2.34000","latitude":"31.907854","total_phosphorus":"0.07270","do":"9.73100","quality":"Ⅱ","conductivity":"378.50000","province":"江苏省","time_point":"2024-02-29 16:00:00","river_system":"太湖流域","temperature":"11.5100","ph":"7.87000","name":"长济桥","id":3186,"river":"新夏港河","codmn":"2.29300","info":"UNKNOWN","status":"","longitude":"120.204109"},{"turbidity":"14.22000","city":"无锡市","nh3n":"0.37780","total_nitrogen":"3.51400","latitude":"31.577007","total_phosphorus":"0.07440","do":"10.27000","quality":"Ⅱ","conductivity":"565.97000","province":"江苏省","time_point":"2024-02-29 16:00:00","river_system":"太湖流域","temperature":"7.8500","ph":"7.83000","name":"钓邾大桥","id":3183,"river":"新兴塘河-九里河","codmn":"2.59300","info":"UNKNOWN","status":"","longitude":"120.556522"},{"turbidity":"49.71900","city":"镇江市","nh3n":"0.30800","total_nitrogen":"3.11500","latitude":"31.488754","total_phosphorus":"0.12400","do":"9.99800","quality":"Ⅲ","conductivity":"408.46900","province":"江苏省","time_point":"2024-02-29 16:00:00","river_system":"太湖流域","temperature":"9.1000","ph":"7.95000","name":"吕城","id":3130,"river":"京杭运河","codmn":"2.21600","info":"UNKNOWN","status":"","longitude":"120.304898"},{"turbidity":"31.77000","city":"镇江市","nh3n":"0.17730","total_nitrogen":"2.04400","latitude":"32.123444","total_phosphorus":"0.08890","do":"9.60500","quality":"Ⅱ","conductivity":"357.40000","province":"江苏省","time_point":"2024-02-29 16:00:00","river_system":"太湖流域","temperature":"9.8600","ph":"7.90000","name":"辛丰镇","id":3181,"river":"京杭运河","codmn":"3.03000","info":"UNKNOWN","status":"","longitude":"119.57278"},{"turbidity":"40.49500","city":"镇江市","nh3n":"0.04900","total_nitrogen":"1.75600","latitude":"31.22454","total_phosphorus":"0.06600","do":"9.83000","quality":"Ⅱ","conductivity":"341.27600","province":"江苏省","time_point":"2024-02-29 16:00:00","river_system":"太湖流域","temperature":"9.4020","ph":"7.90000","name":"林家闸","id":3151,"river":"九曲河","codmn":"1.50300","info":"UNKNOWN","status":"","longitude":"119.850415"},{"turbidity":"72.12100","city":"宝山区","nh3n":"0.49200","total_nitrogen":"4.03800","latitude":"31.392691","total_phosphorus":"0.13100","do":"8.92900","quality":"Ⅲ","conductivity":"513.91300","province":"上海市","time_point":"2024-02-29 16:00:00","river_system":"太湖流域","temperature":"9.7700","ph":"7.37600","name":"吴淞口","id":2586,"river":"黄浦江","codmn":"3.93800","info":"UNKNOWN","status":"","longitude":"121.522058"},{"turbidity":"68.54200","city":"宝山区","nh3n":"0.40300","total_nitrogen":"4.50500","latitude":"31.40073","total_phosphorus":"0.15700","do":"8.09800","quality":"Ⅲ","conductivity":"578.11800","province":"上海市","time_point":"2024-02-29 16:00:00","river_system":"太湖流域","temperature":"8.7970","ph":"7.60000","name":"蕴川路桥","id":2208,"river":"新练祁河","codmn":"4.13600","info":"UNKNOWN","status":"","longitude":"121.423992"},{"turbidity":"99.89000","city":"奉贤区","nh3n":"0.19000","total_nitrogen":"3.59000","latitude":"30.872458","total_phosphorus":"0.04120","do":"9.83000","quality":"Ⅱ","conductivity":"576.60000","province":"上海市","time_point":"2024-02-29 16:00:00","river_system":"太湖流域","temperature":"7.2900","ph":"7.70000","name":"钱桥","id":2209,"river":"金汇港","codmn":"3.57100","info":"UNKNOWN","status":"","longitude":"121.541336"},{"turbidity":"30.83000","city":"嘉定区","nh3n":"0.37920","total_nitrogen":"3.12500","latitude":"31.276424","total_phosphorus":"0.09690","do":"8.81600","quality":"UNKNOWN","conductivity":"627.93000","province":"上海市","time_point":"2024-02-29 16:00:00","river_system":"太湖流域","temperature":"10.4200","ph":"8.14000","name":"黄渡","id":2211,"river":"苏州河","info":"UNKNOWN","status":"","longitude":"121.225288"},{"turbidity":"47.04500","city":"静安区","nh3n":"0.18900","total_nitrogen":"3.39400","latitude":"31.241434","total_phosphorus":"0.08700","do":"8.86600","quality":"Ⅱ","conductivity":"552.80600","province":"上海市","time_point":"2024-02-29 16:00:00","river_system":"太湖流域","temperature":"8.7920","ph":"7.61000","name":"浙江路桥","id":2589,"river":"苏州河","codmn":"3.19000","info":"UNKNOWN","status":"","longitude":"121.476553"},{"turbidity":"35.62000","city":"闵行区","nh3n":"0.44280","total_nitrogen":"3.84800","latitude":"30.96988","total_phosphorus":"0.08370","do":"9.65000","quality":"Ⅱ","conductivity":"463.14500","province":"上海市","time_point":"2024-02-29 16:00:00","river_system":"太湖流域","temperature":"6.6700","ph":"7.70800","name":"闵行西界(松浦大桥)","id":2210,"river":"黄浦江","codmn":"3.16740","info":"UNKNOWN","status":"","longitude":"121.312408"},{"turbidity":"119.30000","city":"浦东新区","nh3n":"0.37910","total_nitrogen":"2.86100","latitude":"31.013867","total_phosphorus":"0.10380","do":"5.58000","quality":"Ⅲ","conductivity":"508.10000","province":"上海市","time_point":"2024-02-29 16:00:00","river_system":"太湖流域","temperature":"8.7400","ph":"7.65000","name":"二团","id":2200,"river":"大治河","codmn":"4.53800","info":"UNKNOWN","status":"","longitude":"121.754522"},{"turbidity":"10.97000","city":"青浦区","nh3n":"0.07330","total_nitrogen":"2.30500","latitude":"31.088307","total_phosphorus":"0.06170","do":"10.48000","quality":"Ⅱ","conductivity":"571.05000","province":"上海市","time_point":"2024-02-29 16:00:00","river_system":"太湖流域","temperature":"10.0300","ph":"8.60000","name":"淀峰","id":2207,"river":"黄浦江","codmn":"2.74900","info":"UNKNOWN","status":"","longitude":"120.985569"},{"turbidity":"58.80000","city":"青浦区","nh3n":"0.11840","total_nitrogen":"1.94150","latitude":"31.1155091","chlorophyll":"0.01875","total_phosphorus":"0.05090","do":"9.21000","quality":"Ⅳ","conductivity":"508.00000","province":"上海市","time_point":"2024-02-29 16:00:00","river_system":"太湖流域","temperature":"7.5000","ph":"7.74000","name":"急水港桥","algal_density":"8666000","id":2204,"river":"急水港","codmn":"1.81000","info":"苏-沪省界","status":"","longitude":"120.9170361"},{"turbidity":"84.80000","city":"青浦区","nh3n":"0.19580","total_nitrogen":"2.16600","latitude":"31.023111","total_phosphorus":"0.16240","do":"12.41200","quality":"Ⅲ","conductivity":"492.73000","province":"上海市","time_point":"2024-02-29 16:00:00","river_system":"太湖流域","temperature":"7.2300","ph":"7.64000","name":"太浦河桥","id":2203,"river":"太浦河","codmn":"2.51100","info":"UNKNOWN","status":"","longitude":"121.041476"},{"turbidity":"47.67043","city":"上海市","nh3n":"0.37915","total_nitrogen":"5.40440","latitude":"30.924535","total_phosphorus":"0.14317","do":"9.00709","quality":"Ⅲ","conductivity":"549.85750","province":"上海市","time_point":"2024-02-29 16:00:00","river_system":"太湖流域","temperature":"8.0700","ph":"7.41578","name":"明星路桥","id":2587,"river":"面杖港","codmn":"4.68994","info":"UNKNOWN","status":"","longitude":"121.571838"},{"turbidity":"54.88000","city":"松江区","nh3n":"0.47030","total_nitrogen":"7.65100","latitude":"30.949895","total_phosphorus":"0.14150","do":"7.61400","quality":"Ⅲ","conductivity":"591.59000","province":"上海市","time_point":"2024-02-29 16:00:00","river_system":"太湖流域","temperature":"8.3600","ph":"8.07000","name":"横潦泾","id":2206,"river":"大泖港","codmn":"4.97900","info":"UNKNOWN","status":"","longitude":"121.204222"},{"turbidity":"66.43000","city":"松江区","nh3n":"0.21850","total_nitrogen":"4.26400","latitude":"31.005464","total_phosphorus":"0.08690","do":"8.40900","quality":"Ⅲ","conductivity":"614.46000","province":"上海市","time_point":"2024-02-29 16:00:00","river_system":"太湖流域","temperature":"7.7200","ph":"7.65000","name":"斜塘口","id":2205,"river":"园泄泾","codmn":"4.01800","info":"UNKNOWN","status":"","longitude":"121.12989"},{"turbidity":"162.63400","city":"徐汇区","nh3n":"0.47400","total_nitrogen":"4.89300","latitude":"31.801399","total_phosphorus":"0.11300","do":"11.44300","quality":"Ⅲ","conductivity":"573.46800","province":"上海市","time_point":"2024-02-29 16:00:00","river_system":"太湖流域","temperature":"8.1060","ph":"7.80000","name":"临江","id":2199,"river":"黄浦江","codmn":"3.86200","info":"UNKNOWN","status":"","longitude":"121.194699"},{"turbidity":"22.00251","city":"广安市","nh3n":"0.03400","total_nitrogen":"1.01484","latitude":"28.898659","total_phosphorus":"0.07500","do":"12.95826","quality":"Ⅲ","conductivity":"486.30570","province":"四川省","time_point":"2024-02-29 16:00:00","river_system":"太湖流域","temperature":"11.8863","ph":"8.59761","name":"清平镇大庙村（摇金）","id":2789,"river":"南溪河","codmn":"4.62205","info":"UNKNOWN","status":"","longitude":"104.95491"},{"turbidity":"36.30000","city":"杭州市","nh3n":"0.29110","total_nitrogen":"3.23200","latitude":"30.442504","total_phosphorus":"0.07200","do":"9.49800","quality":"Ⅱ","conductivity":"304.90000","province":"浙江省","time_point":"2024-02-29 16:00:00","river_system":"太湖流域","temperature":"9.6700","ph":"7.64000","name":"奉口","id":3358,"river":"东苕溪","codmn":"1.59300","info":"UNKNOWN","status":"","longitude":"120.070573"},{"turbidity":"18.63300","city":"杭州市","nh3n":"0.21720","total_nitrogen":"2.49100","latitude":"30.012424","total_phosphorus":"0.09840","do":"9.52500","quality":"Ⅱ","conductivity":"232.84200","province":"浙江省","time_point":"2024-02-29 16:00:00","river_system":"太湖流域","temperature":"10.5900","ph":"7.36900","name":"顾家桥","id":3392,"river":"京杭运河","codmn":"2.08000","info":"UNKNOWN","status":"","longitude":"122.099384"},{"turbidity":"13.77000","city":"杭州市","nh3n":"1.08000","total_nitrogen":"3.75000","latitude":"30.147737","total_phosphorus":"0.12000","do":"8.28000","quality":"Ⅳ","conductivity":"484.16000","province":"浙江省","time_point":"2024-02-29 16:00:00","river_system":"太湖流域","temperature":"9.5700","ph":"7.47000","name":"五杭运河大桥","id":3348,"river":"京杭运河","codmn":"2.70000","info":"UNKNOWN","status":"","longitude":"120.407333"},{"turbidity":"16.40000","city":"杭州市","nh3n":"0.15380","total_nitrogen":"3.50300","latitude":"30.25332","total_phosphorus":"0.06560","do":"9.55300","quality":"Ⅱ","conductivity":"320.00000","province":"浙江省","time_point":"2024-02-29 16:00:00","river_system":"太湖流域","temperature":"11.2800","ph":"7.74000","name":"汪家埠","id":3370,"river":"南苕溪","codmn":"2.19081","info":"UNKNOWN","status":"","longitude":"119.866868"},{"turbidity":"49.14000","city":"湖州市","nh3n":"0.33320","total_nitrogen":"5.91000","latitude":"28.494492","total_phosphorus":"0.09020","do":"8.90000","quality":"Ⅱ","conductivity":"346.60000","province":"浙江省","time_point":"2024-02-29 16:00:00","river_system":"太湖流域","temperature":"7.8500","ph":"7.74000","name":"新塘","id":2484,"river":"长兴港","codmn":"3.61200","info":"UNKNOWN","status":"","longitude":"119.833412"},{"turbidity":"36.74000","city":"湖州市","nh3n":"0.51060","total_nitrogen":"4.35900","latitude":"30.921099","total_phosphorus":"0.08300","do":"8.73000","quality":"Ⅲ","conductivity":"431.75000","province":"浙江省","time_point":"2024-02-29 16:00:00","river_system":"太湖流域","temperature":"7.9000","ph":"7.45000","name":"大钱","id":2479,"river":"大钱港","codmn":"2.73200","info":"UNKNOWN","status":"","longitude":"120.177691"},{"turbidity":"0.67000","city":"湖州市","nh3n":"0.02500","latitude":"30.84969","do":"11.78400","quality":"UNKNOWN","conductivity":"0.16000","province":"浙江省","time_point":"2024-02-29 16:00:00","river_system":"太湖流域","temperature":"9.1700","ph":"7.50000","name":"南浔","id":2100,"river":"頔塘","codmn":"0.69300","info":"UNKNOWN","status":"","longitude":"120.418512"},{"turbidity":"28.87000","city":"湖州市","nh3n":"0.11430","total_nitrogen":"3.70000","latitude":"30.402384","total_phosphorus":"0.07620","do":"8.87800","quality":"Ⅱ","conductivity":"314.78000","province":"浙江省","time_point":"2024-02-29 16:00:00","river_system":"太湖流域","temperature":"11.4200","ph":"7.61000","name":"城南翻水站","id":2108,"river":"东苕溪","codmn":"2.73100","info":"UNKNOWN","status":"","longitude":"120.554155"},{"turbidity":"12.35000","city":"湖州市","nh3n":"0.45770","total_nitrogen":"4.74500","latitude":"29.506424","total_phosphorus":"0.05570","do":"7.99800","quality":"Ⅱ","conductivity":"268.32000","province":"浙江省","time_point":"2024-02-29 16:00:00","river_system":"太湖流域","temperature":"8.2300","ph":"7.05000","name":"城西大桥","id":2476,"river":"东苕溪","codmn":"1.93700","info":"UNKNOWN","status":"","longitude":"120.897324"},{"turbidity":"93.79000","city":"湖州市","nh3n":"0.20370","total_nitrogen":"5.82200","latitude":"28.322041","total_phosphorus":"0.04270","do":"9.53000","quality":"Ⅱ","conductivity":"292.70000","province":"浙江省","time_point":"2024-02-29 16:00:00","river_system":"太湖流域","temperature":"9.5600","ph":"8.04000","name":"合溪","id":2474,"river":"合溪新港","codmn":"3.10100","info":"UNKNOWN","status":"","longitude":"119.704038"},{"turbidity":"112.07000","city":"湖州市","nh3n":"0.45960","total_nitrogen":"4.02500","latitude":"30.939381","total_phosphorus":"0.07470","do":"11.76000","quality":"Ⅱ","conductivity":"408.61000","province":"浙江省","time_point":"2024-02-29 16:00:00","river_system":"太湖流域","temperature":"6.4600","ph":"8.12000","name":"汤溇","id":2492,"river":"汤溇","codmn":"3.25100","info":"UNKNOWN","status":"","longitude":"120.342285"},{"turbidity":"25.13000","city":"湖州市","nh3n":"0.26380","total_nitrogen":"4.05300","latitude":"30.82326","total_phosphorus":"0.05570","do":"8.95200","quality":"Ⅱ","conductivity":"197.67000","province":"浙江省","time_point":"2024-02-29 16:00:00","river_system":"太湖流域","temperature":"8.7200","ph":"7.28000","name":"荆湾","id":2502,"river":"西苕溪","codmn":"1.52700","info":"UNKNOWN","status":"","longitude":"119.780421"},{"turbidity":"54.94000","city":"湖州市","nh3n":"0.13520","total_nitrogen":"2.81800","latitude":"30.640482","total_phosphorus":"0.06790","do":"10.34600","quality":"Ⅱ","conductivity":"118.29000","province":"浙江省","time_point":"2024-02-29 16:00:00","river_system":"太湖流域","temperature":"8.5400","ph":"7.58000","name":"塘浦","id":2477,"river":"西苕溪","codmn":"2.08000","info":"UNKNOWN","status":"","longitude":"119.602837"},{"turbidity":"25.72000","city":"湖州市","nh3n":"0.36100","total_nitrogen":"4.77800","latitude":"30.301193","total_phosphorus":"0.05500","do":"8.90800","quality":"Ⅱ","conductivity":"246.81000","province":"浙江省","time_point":"2024-02-29 16:00:00","river_system":"太湖流域","temperature":"8.6900","ph":"7.33000","name":"铁路桥","id":2507,"river":"西苕溪","codmn":"2.42400","info":"UNKNOWN","status":"","longitude":"119.973122"},{"turbidity":"28.25000","city":"湖州市","nh3n":"0.75760","total_nitrogen":"4.35000","latitude":"30.8909035","chlorophyll":"0.00586","total_phosphorus":"0.08300","do":"8.76000","quality":"Ⅲ","conductivity":"269.05000","province":"浙江省","time_point":"2024-02-29 16:00:00","river_system":"太湖流域","temperature":"8.1600","ph":"7.41000","name":"新港口(新塘港)","id":2485,"river":"西苕溪","codmn":"2.77800","info":"浙-苏省界","status":"","longitude":"120.1005112"},{"turbidity":"33.89000","city":"湖州市","nh3n":"0.30540","total_nitrogen":"4.77300","latitude":"30.963576","total_phosphorus":"0.06000","do":"7.38900","quality":"Ⅱ","conductivity":"278.62000","province":"浙江省","time_point":"2024-02-29 16:00:00","river_system":"太湖流域","temperature":"8.0200","ph":"7.48000","name":"小梅口","id":2482,"river":"小梅港","codmn":"2.68400","info":"UNKNOWN","status":"","longitude":"120.101914"},{"turbidity":"60.36945","city":"湖州市","nh3n":"0.18600","total_nitrogen":"5.21358","latitude":"28.439517","total_phosphorus":"0.03900","do":"9.27224","quality":"Ⅱ","conductivity":"335.32950","province":"浙江省","time_point":"2024-02-29 16:00:00","river_system":"太湖流域","temperature":"8.3220","ph":"7.63258","name":"杨家浦","id":2486,"river":"杨家浦港","codmn":"3.26000","info":"UNKNOWN","status":"","longitude":"121.543023"},{"turbidity":"93.51090","city":"嘉兴市","total_nitrogen":"5.27800","latitude":"30.505918","total_phosphorus":"0.17870","do":"10.40850","quality":"UNKNOWN","conductivity":"469.13000","province":"浙江省","time_point":"2024-02-29 16:00:00","river_system":"太湖流域","temperature":"7.6101","ph":"7.53770","name":"长山闸一号桥","id":2509,"river":"长山河","codmn":"4.90600","info":"UNKNOWN","status":"","longitude":"120.948956"},{"turbidity":"55.95450","city":"嘉兴市","nh3n":"0.75670","total_nitrogen":"5.59500","latitude":"30.848742","total_phosphorus":"0.17910","do":"7.27050","quality":"Ⅲ","conductivity":"517.55000","province":"浙江省","time_point":"2024-02-29 16:00:00","river_system":"太湖流域","temperature":"7.6846","ph":"7.33380","name":"枫南大桥","id":2487,"river":"枫泾塘","codmn":"4.17400","info":"UNKNOWN","status":"","longitude":"120.894048"},{"turbidity":"31.20180","city":"嘉兴市","nh3n":"0.45280","total_nitrogen":"6.55500","latitude":"30.78938","total_phosphorus":"0.13450","do":"7.76000","quality":"Ⅲ","conductivity":"558.32000","province":"浙江省","time_point":"2024-02-29 16:00:00","river_system":"太湖流域","temperature":"7.8928","ph":"7.46030","name":"小新村","id":2481,"river":"广陈塘","codmn":"4.57300","info":"UNKNOWN","status":"","longitude":"121.121247"},{"turbidity":"107.92000","city":"嘉兴市","nh3n":"0.43880","total_nitrogen":"5.90800","latitude":"30.505958","total_phosphorus":"0.14410","do":"8.67900","quality":"Ⅲ","conductivity":"501.66000","province":"浙江省","time_point":"2024-02-29 16:00:00","river_system":"太湖流域","temperature":"7.4700","ph":"7.20100","name":"南台头闸一号桥","id":2471,"river":"海盐塘","codmn":"4.38400","info":"UNKNOWN","status":"","longitude":"120.948967"},{"turbidity":"72.32720","city":"嘉兴市","nh3n":"0.55690","total_nitrogen":"8.80500","latitude":"30.616051","total_phosphorus":"0.22710","do":"8.73170","quality":"Ⅳ","conductivity":"519.88000","province":"浙江省","time_point":"2024-02-29 16:00:00","river_system":"太湖流域","temperature":"7.4536","ph":"7.38180","name":"尤甪村","id":2483,"river":"海盐塘","codmn":"4.88200","info":"UNKNOWN","status":"","longitude":"120.805238"},{"turbidity":"42.87270","city":"嘉兴市","nh3n":"0.20500","total_nitrogen":"5.02600","latitude":"30.856484","total_phosphorus":"0.08260","do":"9.37290","quality":"Ⅱ","conductivity":"592.58700","province":"浙江省","time_point":"2024-02-29 16:00:00","river_system":"太湖流域","temperature":"7.9776","ph":"7.77430","name":"红旗塘大坝","id":2501,"river":"红旗塘","codmn":"3.67300","info":"UNKNOWN","status":"","longitude":"120.914013"},{"turbidity":"44.33100","city":"嘉兴市","nh3n":"0.62500","total_nitrogen":"8.54900","latitude":"30.267446","total_phosphorus":"0.16700","do":"7.80900","quality":"Ⅲ","conductivity":"620.05900","province":"浙江省","time_point":"2024-02-29 16:00:00","river_system":"太湖流域","temperature":"7.7630","ph":"7.38000","name":"卫八路桥（嘉兴金桥）","id":3350,"river":"黄姑塘","codmn":"4.70000","info":"UNKNOWN","status":"","longitude":"120.152791"},{"turbidity":"30.59429","city":"嘉兴市","nh3n":"0.78932","total_nitrogen":"9.63602","latitude":"30.788164","total_phosphorus":"0.19607","do":"7.29705","quality":"Ⅲ","conductivity":"502.37030","province":"浙江省","time_point":"2024-02-29 16:00:00","river_system":"太湖流域","temperature":"7.7815","ph":"7.33638","name":"漕廊公路桥","id":3381,"river":"惠高泾","codmn":"4.31781","info":"UNKNOWN","status":"","longitude":"121.287508"},{"turbidity":"157.62000","city":"嘉兴市","nh3n":"0.45500","total_nitrogen":"4.67200","latitude":"30.8849975","total_phosphorus":"0.10600","do":"7.40000","quality":"Ⅲ","conductivity":"549.35000","province":"浙江省","time_point":"2024-02-29 16:00:00","river_system":"太湖流域","temperature":"7.8000","ph":"7.50100","name":"王江泾","id":2499,"river":"京杭运河","codmn":"4.03400","info":"苏-浙省界","status":"","longitude":"120.7095199"},{"turbidity":"48.24930","city":"嘉兴市","nh3n":"0.29460","total_nitrogen":"5.04100","latitude":"30.742701","do":"8.33400","quality":"UNKNOWN","conductivity":"483.59000","province":"浙江省","time_point":"2024-02-29 16:00:00","river_system":"太湖流域","temperature":"7.5976","ph":"7.79860","name":"乌镇北","id":2469,"river":"澜溪塘","codmn":"3.74300","info":"UNKNOWN","status":"","longitude":"120.487901"},{"turbidity":"29.64000","city":"嘉兴市","nh3n":"0.41200","total_nitrogen":"5.76700","total_phosphorus":"0.11400","do":"10.86000","quality":"Ⅲ","conductivity":"590.09000","province":"浙江省","time_point":"2024-02-29 16:00:00","river_system":"太湖流域","temperature":"7.8400","ph":"7.36000","name":"朱枫公路桥（清凉大桥）","id":6381,"river":"蒲泽塘","codmn":"4.15900","status":""},{"turbidity":"22.05000","city":"嘉兴市","nh3n":"0.27870","total_nitrogen":"7.15000","latitude":"30.814378","total_phosphorus":"0.13580","do":"7.63000","quality":"Ⅲ","conductivity":"537.21000","province":"浙江省","time_point":"2024-02-29 16:00:00","river_system":"太湖流域","temperature":"8.1100","ph":"7.38200","name":"青阳汇","id":2511,"river":"上海塘","codmn":"3.87000","info":"UNKNOWN","status":"","longitude":"121.102536"},{"turbidity":"13.79000","city":"嘉兴市","nh3n":"0.18950","total_nitrogen":"3.20700","latitude":"30.367019","total_phosphorus":"0.13000","do":"9.68400","quality":"Ⅲ","conductivity":"639.57000","province":"浙江省","time_point":"2024-02-29 16:00:00","river_system":"太湖流域","temperature":"8.5600","ph":"8.00000","name":"上塘河排涝闸","id":2464,"river":"上塘河","codmn":"3.89600","info":"UNKNOWN","status":"","longitude":"120.221154"},{"turbidity":"11.57000","city":"嘉兴市","nh3n":"0.02500","total_nitrogen":"0.60800","latitude":"30.030173","total_phosphorus":"0.03130","do":"9.67000","quality":"Ⅱ","conductivity":"493.65000","province":"浙江省","time_point":"2024-02-29 16:00:00","river_system":"太湖流域","temperature":"7.3300","ph":"7.82000","name":"湘家荡","id":2497,"river":"湘家荡","codmn":"2.52500","info":"UNKNOWN","status":"","longitude":"120.604399"},{"turbidity":"19.35920","city":"嘉兴市","nh3n":"0.29260","total_nitrogen":"4.28800","latitude":"30.402274","total_phosphorus":"0.12640","do":"9.28570","quality":"Ⅲ","conductivity":"464.52000","province":"浙江省","time_point":"2024-02-29 16:00:00","river_system":"太湖流域","temperature":"8.2857","ph":"7.64240","name":"盐官排涝枢纽","id":2500,"river":"盐官下河","codmn":"2.83200","info":"UNKNOWN","status":"","longitude":"120.545629"},{"turbidity":"27.03980","city":"嘉兴市","nh3n":"0.12680","total_nitrogen":"3.05000","latitude":"30.724406","total_phosphorus":"0.06050","do":"12.15960","quality":"Ⅱ","conductivity":"549.60000","province":"浙江省","time_point":"2024-02-29 16:00:00","river_system":"太湖流域","temperature":"7.1447","ph":"7.65510","name":"池家浜水文站","id":2490,"river":"俞汇塘","codmn":"2.91200","info":"UNKNOWN","status":"","longitude":"120.994556"},{"turbidity":"12.94143","city":"宣城市","nh3n":"0.68465","total_nitrogen":"4.46975","latitude":"31.618256","total_phosphorus":"0.10065","do":"8.59745","quality":"Ⅲ","conductivity":"336.69450","province":"安徽省","time_point":"2024-02-29 12:00:00","river_system":"太湖流域","temperature":"8.0202","ph":"7.65882","name":"殷桥","id":2900,"river":"梅溧河","codmn":"5.97757","info":"UNKNOWN","status":"","longitude":"117.2443"},{"turbidity":"55.59000","city":"常州市","nh3n":"0.35200","total_nitrogen":"2.67300","latitude":"31.830233","total_phosphorus":"0.12080","do":"8.73900","quality":"Ⅲ","conductivity":"391.00000","province":"江苏省","time_point":"2024-02-29 12:00:00","river_system":"太湖流域","temperature":"8.6300","ph":"7.39000","name":"黄埝桥","id":3192,"river":"丹金溧漕河","codmn":"2.92900","info":"UNKNOWN","status":"","longitude":"119.607156"},{"turbidity":"24.43000","city":"常州市","nh3n":"0.04260","total_nitrogen":"5.52900","latitude":"31.306263","total_phosphorus":"0.12400","do":"9.02000","quality":"Ⅲ","conductivity":"522.44000","province":"江苏省","time_point":"2024-02-29 12:00:00","river_system":"太湖流域","temperature":"8.1200","ph":"7.61000","name":"姚巷桥","id":3138,"river":"武进港","codmn":"2.67000","info":"UNKNOWN","status":"","longitude":"119.239627"},{"turbidity":"35.10000","city":"常州市","nh3n":"0.61240","total_nitrogen":"5.00400","latitude":"31.346315","total_phosphorus":"0.07680","do":"7.81600","quality":"Ⅲ","conductivity":"385.00000","province":"江苏省","time_point":"2024-02-29 12:00:00","river_system":"太湖流域","temperature":"6.7200","ph":"7.21000","name":"落蓬湾","id":3176,"river":"胥河","codmn":"5.50200","info":"UNKNOWN","status":"","longitude":"119.223289"},{"turbidity":"15.90000","city":"常州市","nh3n":"0.21360","total_nitrogen":"2.17300","total_phosphorus":"0.06730","do":"9.27500","quality":"Ⅱ","conductivity":"433.80000","province":"江苏省","time_point":"2024-02-29 12:00:00","river_system":"太湖流域","temperature":"7.3000","ph":"7.89000","name":"九号桥","id":6328,"river":"澡港河","codmn":"2.18000","status":""},{"turbidity":"17.88000","city":"苏州市","nh3n":"0.41200","total_nitrogen":"3.55300","latitude":"31.452117","total_phosphorus":"0.09850","do":"10.38000","quality":"Ⅱ","conductivity":"550.65000","province":"江苏省","time_point":"2024-02-29 12:00:00","river_system":"太湖流域","temperature":"8.2000","ph":"7.85000","name":"望亭上游","id":3148,"river":"京杭运河","codmn":"2.40200","info":"UNKNOWN","status":"","longitude":"120.427174"},{"turbidity":"138.18500","city":"苏州市","nh3n":"0.85450","total_nitrogen":"3.60740","latitude":"31.515118","total_phosphorus":"0.15800","do":"7.43000","quality":"Ⅲ","conductivity":"630.57000","province":"江苏省","time_point":"2024-02-29 12:00:00","river_system":"太湖流域","temperature":"8.9600","ph":"7.79200","name":"浏河闸","id":3158,"river":"浏河","codmn":"3.62730","info":"UNKNOWN","status":"","longitude":"121.276419"},{"turbidity":"24.16000","city":"苏州市","nh3n":"0.17170","total_nitrogen":"2.92410","latitude":"32.061707","total_phosphorus":"0.07050","do":"10.33900","quality":"Ⅲ","conductivity":"519.22000","province":"江苏省","time_point":"2024-02-29 12:00:00","river_system":"太湖流域","temperature":"7.0100","ph":"7.52600","name":"千灯浦口","id":3128,"river":"千灯浦","codmn":"4.53280","info":"UNKNOWN","status":"","longitude":"118.763232"},{"turbidity":"11.90000","city":"苏州市","nh3n":"0.27730","total_nitrogen":"1.28200","latitude":"31.388542","total_phosphorus":"0.05100","do":"7.86300","quality":"Ⅱ","conductivity":"369.40000","province":"江苏省","time_point":"2024-02-29 12:00:00","river_system":"太湖流域","temperature":"5.6400","ph":"8.30000","name":"越溪桥","id":3180,"river":"苏东河","codmn":"2.70000","info":"UNKNOWN","status":"","longitude":"120.973408"},{"turbidity":"217.52700","city":"苏州市","nh3n":"0.02500","total_nitrogen":"1.48000","latitude":"32.032782","chlorophyll":"0.00432","total_phosphorus":"0.12620","do":"12.21400","quality":"Ⅴ","conductivity":"476.64500","province":"江苏省","time_point":"2024-02-29 12:00:00","river_system":"太湖流域","temperature":"6.2800","ph":"8.17500","name":"胥湖心","algal_density":"23812800","id":3171,"river":"太湖","codmn":"5.60700","info":"UNKNOWN","status":"","longitude":"118.752935"},{"turbidity":"24.02000","city":"苏州市","nh3n":"0.02640","total_nitrogen":"1.41800","latitude":"31.342268","total_phosphorus":"0.02600","do":"12.38000","quality":"Ⅱ","conductivity":"394.52000","province":"江苏省","time_point":"2024-02-29 12:00:00","river_system":"太湖流域","temperature":"6.8400","ph":"8.00000","name":"312国道桥","id":3113,"river":"望虞河","codmn":"2.10000","info":"UNKNOWN","status":"","longitude":"120.640035"},{"turbidity":"56.41000","city":"苏州市","nh3n":"0.51950","total_nitrogen":"3.35700","latitude":"31.768555","total_phosphorus":"0.09620","do":"8.13700","quality":"Ⅲ","conductivity":"490.30000","province":"江苏省","time_point":"2024-02-29 12:00:00","river_system":"太湖流域","temperature":"10.8500","ph":"7.14000","name":"江边闸","id":3153,"river":"望虞河","codmn":"2.52500","info":"UNKNOWN","status":"","longitude":"120.810987"},{"turbidity":"19.36400","city":"苏州市","nh3n":"0.02500","total_nitrogen":"0.94700","latitude":"31.191479","total_phosphorus":"0.01400","do":"10.19300","quality":"Ⅱ","conductivity":"438.64700","province":"江苏省","time_point":"2024-02-29 12:00:00","river_system":"太湖流域","temperature":"7.5140","ph":"7.51000","name":"瓜泾口西","id":3164,"river":"吴淞江","codmn":"2.14100","info":"UNKNOWN","status":"","longitude":"120.661595"},{"turbidity":"170.07400","city":"苏州市","nh3n":"0.81320","total_nitrogen":"1.64670","latitude":"31.433021","total_phosphorus":"0.36040","do":"9.01300","quality":"Ⅴ","conductivity":"715.47100","province":"江苏省","time_point":"2024-02-29 12:00:00","river_system":"太湖流域","temperature":"8.2800","ph":"7.33000","name":"赵屯(石浦大桥)","id":3179,"river":"吴淞江","codmn":"3.89080","info":"UNKNOWN","status":"","longitude":"120.875192"},{"turbidity":"117.55000","city":"苏州市","nh3n":"0.05130","total_nitrogen":"1.02200","latitude":"30.831855","total_phosphorus":"0.02140","do":"11.42500","quality":"Ⅱ","conductivity":"486.68000","province":"江苏省","time_point":"2024-02-29 12:00:00","river_system":"太湖流域","temperature":"6.3200","ph":"7.86000","name":"航管站","id":3172,"river":"胥江","codmn":"3.04600","info":"UNKNOWN","status":"","longitude":"120.558677"},{"turbidity":"14.13200","city":"苏州市","nh3n":"0.04980","total_nitrogen":"2.38600","latitude":"31.460995","chlorophyll":"0.00181","total_phosphorus":"0.03950","do":"12.36000","quality":"Ⅲ","conductivity":"441.49000","province":"江苏省","time_point":"2024-02-29 12:00:00","river_system":"太湖流域","temperature":"6.3200","ph":"8.05900","name":"阳澄湖心","algal_density":"13642900","id":3187,"river":"阳澄湖","codmn":"2.80400","info":"UNKNOWN","status":"","longitude":"120.869564"},{"turbidity":"36.58500","city":"苏州市","nh3n":"0.22300","total_nitrogen":"2.54020","latitude":"32.570502","total_phosphorus":"0.05660","do":"10.53400","quality":"Ⅱ","conductivity":"584.74500","province":"江苏省","time_point":"2024-02-29 12:00:00","river_system":"太湖流域","temperature":"7.0000","ph":"7.98200","name":"朱厍港口","id":3149,"river":"朱厍港","codmn":"2.54620","info":"UNKNOWN","status":"","longitude":"119.949664"},{"turbidity":"17.68000","city":"无锡市","nh3n":"0.18090","total_nitrogen":"2.36700","latitude":"31.910246","total_phosphorus":"0.07040","do":"10.62000","quality":"Ⅱ","conductivity":"357.30000","province":"江苏省","time_point":"2024-02-29 12:00:00","river_system":"太湖流域","temperature":"9.5500","ph":"7.95000","name":"金潼桥","id":3182,"river":"白屈港","codmn":"2.54200","info":"UNKNOWN","status":"","longitude":"120.32641"},{"turbidity":"41.75600","city":"无锡市","nh3n":"0.87290","total_nitrogen":"4.64870","latitude":"32.687943","total_phosphorus":"0.14110","do":"9.37000","quality":"Ⅲ","conductivity":"528.36800","province":"江苏省","time_point":"2024-02-29 12:00:00","river_system":"太湖流域","temperature":"5.6900","ph":"7.67900","name":"百渎港桥","id":3946,"river":"百渎港","codmn":"4.25970","info":"UNKNOWN","status":"","longitude":"120.254645"},{"turbidity":"11.14900","city":"无锡市","nh3n":"0.06100","total_nitrogen":"3.92000","latitude":"32.090435","total_phosphorus":"0.02300","do":"9.09600","quality":"Ⅱ","conductivity":"142.62200","province":"江苏省","time_point":"2024-02-29 12:00:00","river_system":"太湖流域","temperature":"9.1490","ph":"6.94000","name":"大港桥","id":3137,"river":"大港河","codmn":"1.16400","info":"UNKNOWN","status":"","longitude":"120.288398"},{"turbidity":"41.89700","city":"无锡市","nh3n":"0.60600","total_nitrogen":"5.05000","latitude":"31.635595","total_phosphorus":"0.09100","do":"9.50400","quality":"Ⅲ","conductivity":"520.30700","province":"江苏省","time_point":"2024-02-29 12:00:00","river_system":"太湖流域","temperature":"6.6760","ph":"7.49000","name":"大浦港桥","id":3136,"river":"大浦港","codmn":"4.35700","info":"UNKNOWN","status":"","longitude":"119.506363"},{"turbidity":"16.15000","city":"无锡市","nh3n":"0.78700","total_nitrogen":"4.53900","latitude":"31.678267","total_phosphorus":"0.15260","do":"10.06000","quality":"Ⅲ","conductivity":"479.87000","province":"江苏省","time_point":"2024-02-29 12:00:00","river_system":"太湖流域","temperature":"7.9500","ph":"7.62000","name":"五牧","id":3122,"river":"京杭运河","codmn":"3.18400","info":"UNKNOWN","status":"","longitude":"120.154207"},{"turbidity":"25.05000","city":"无锡市","nh3n":"0.15300","total_nitrogen":"1.77000","latitude":"31.554449","total_phosphorus":"0.04550","do":"11.12000","quality":"Ⅲ","conductivity":"391.86000","province":"江苏省","time_point":"2024-02-29 12:00:00","river_system":"太湖流域","temperature":"6.6400","ph":"7.79000","name":"蠡桥","id":3178,"river":"梁溪河","codmn":"4.22300","info":"UNKNOWN","status":"","longitude":"120.284393"},{"turbidity":"73.77300","city":"无锡市","nh3n":"0.77600","total_nitrogen":"6.52300","latitude":"31.925323","total_phosphorus":"0.09300","do":"10.01700","quality":"Ⅲ","conductivity":"529.91700","province":"江苏省","time_point":"2024-02-29 12:00:00","river_system":"太湖流域","temperature":"6.8710","ph":"7.60000","name":"潘家坝","id":3162,"river":"南溪河","codmn":"5.23400","info":"UNKNOWN","status":"","longitude":"118.532748"},{"turbidity":"61.93000","city":"无锡市","nh3n":"0.48600","total_nitrogen":"4.54500","latitude":"31.503261","total_phosphorus":"0.11000","do":"9.66000","quality":"Ⅲ","conductivity":"525.30000","province":"江苏省","time_point":"2024-02-29 12:00:00","river_system":"太湖流域","temperature":"8.2600","ph":"7.58000","name":"殷村港桥","id":2406,"river":"太滆南运河","codmn":"4.16200","info":"UNKNOWN","status":"","longitude":"119.838119"},{"turbidity":"55.37000","city":"无锡市","nh3n":"0.12790","total_nitrogen":"1.72400","latitude":"31.211617","chlorophyll":"0.00453","total_phosphorus":"0.04760","do":"11.90400","quality":"Ⅲ","conductivity":"330.99300","province":"江苏省","time_point":"2024-02-29 12:00:00","river_system":"太湖流域","temperature":"5.6700","ph":"7.49500","name":"兰山嘴","algal_density":"13976880","id":3124,"river":"太湖","codmn":"3.10300","info":"UNKNOWN","status":"","longitude":"119.89146"},{"turbidity":"75.24000","city":"无锡市","nh3n":"0.02500","total_nitrogen":"1.69000","latitude":"31.405592","chlorophyll":"0.01403","total_phosphorus":"0.03300","do":"10.37000","quality":"Ⅲ","conductivity":"418.00000","province":"江苏省","time_point":"2024-02-29 12:00:00","river_system":"太湖流域","temperature":"5.7800","ph":"8.25800","name":"拖山","algal_density":"16247130","id":3143,"river":"太湖","codmn":"2.54000","info":"UNKNOWN","status":"","longitude":"120.135477"},{"turbidity":"21.33600","city":"无锡市","nh3n":"0.02500","total_nitrogen":"0.99300","latitude":"33.597258","chlorophyll":"0.00590","total_phosphorus":"0.03170","do":"11.29700","quality":"Ⅲ","conductivity":"411.39800","province":"江苏省","time_point":"2024-02-29 12:00:00","river_system":"太湖流域","temperature":"5.9600","ph":"7.54300","name":"五里湖心","algal_density":"4312060","id":3123,"river":"太湖","codmn":"3.04500","info":"UNKNOWN","status":"","longitude":"118.897236"},{"turbidity":"36.51900","city":"无锡市","nh3n":"0.02500","total_nitrogen":"1.20800","latitude":"31.671141","chlorophyll":"0.02046","total_phosphorus":"0.02600","do":"12.68500","quality":"Ⅲ","conductivity":"411.08500","province":"江苏省","time_point":"2024-02-29 12:00:00","river_system":"太湖流域","temperature":"6.6650","ph":"8.44000","name":"锡东水厂","algal_density":"2887910","id":3185,"river":"太湖","codmn":"2.42800","info":"UNKNOWN","status":"","longitude":"120.474809"}],"pager":{"nextpage":2,"prepage":1,"count":425,"page":1,"total_pages":4,"rows":125},"description":"地表水水质实时监控 (月萌API www.moonapi.com)","time":1709210420,"status":"success"}